City,Lat,Long,Max Temperature,Humidity,Clouds,Winds,Country,Date
tazovskiy,67.47,78.7,-19.98,97,44,6.13,RU,1577420745
new norfolk,-42.78,147.06,72.0,42,20,11.41,AU,1577420746
puerto ayora,-0.74,-90.35,73.99,89,100,1.01,EC,1577420449
chernyshevskiy,63.01,112.47,-29.25,96,100,5.93,RU,1577420746
thompson,55.74,-97.86,17.6,92,90,3.36,CA,1577420746
hithadhoo,-0.6,73.08,82.31,78,49,9.78,MV,1577420746
carnarvon,-30.97,22.13,43.34,70,32,16.58,ZA,1577420746
ushuaia,-54.81,-68.31,51.8,71,90,12.75,AR,1577420617
punta arenas,-53.16,-70.91,55.4,66,100,14.99,CL,1577420746
dong hoi,17.48,106.6,66.87,94,100,12.21,VN,1577420747
nuuk,64.17,-51.74,15.8,85,0,6.93,GL,1577420546
bud,62.91,6.91,33.8,72,2,8.05,NO,1577420747
port blair,11.67,92.75,78.53,68,0,5.88,IN,1577420532
nikolskoye,59.7,30.79,34.0,80,90,8.95,RU,1577420466
atuona,-9.8,-139.03,81.19,77,71,18.41,PF,1577420538
plettenberg bay,-34.05,23.37,57.72,60,5,12.01,ZA,1577420747
hilo,19.71,-155.08,78.8,83,90,8.1,US,1577420747
port-cartier,50.03,-66.88,-5.8,76,5,2.24,CA,1577420748
hermanus,-34.42,19.24,54.0,90,42,19.82,ZA,1577420748
airai,-8.93,125.41,85.24,56,96,2.66,TL,1577420748
cape town,-33.93,18.42,57.99,87,40,1.12,ZA,1577420562
hobart,-42.88,147.33,72.0,42,20,11.41,AU,1577420487
kahului,20.89,-156.47,75.2,76,90,4.7,US,1577420748
vaini,15.34,74.49,75.2,78,40,6.93,IN,1577420464
busselton,-33.64,115.35,82.0,31,73,8.9,AU,1577420458
evensk,61.92,159.24,-1.62,65,82,13.96,RU,1577420749
nishihara,35.74,139.53,57.99,50,40,25.28,JP,1577420749
mataura,-46.19,168.86,55.0,61,100,17.0,NZ,1577420749
kapaa,22.08,-159.32,78.8,78,40,6.93,US,1577420498
namibe,-15.19,12.15,73.45,81,84,4.99,AO,1577420749
grand gaube,-20.01,57.66,80.6,88,75,17.22,MU,1577420500
santa cruz,-6.22,-36.02,71.26,87,81,7.29,BR,1577420750
margate,-43.03,147.26,72.0,42,20,11.41,AU,1577420750
edson,53.59,-116.44,6.8,92,40,4.7,CA,1577420750
pisco,-13.71,-76.2,69.8,83,67,3.36,PE,1577420750
seabrook,38.97,-76.84,46.4,80,40,4.47,US,1577420750
mahebourg,-20.41,57.7,80.6,88,75,17.22,MU,1577420751
morden,49.19,-98.1,21.2,100,1,11.41,CA,1577420751
rikitea,-23.12,-134.97,75.52,84,100,7.27,PF,1577420751
garowe,8.41,48.48,67.95,45,0,4.94,SO,1577420751
albany,42.65,-73.75,39.99,69,90,10.29,US,1577420501
castro,-42.48,-73.76,55.4,100,90,17.22,CL,1577420751
tessalit,20.2,1.01,59.4,20,56,10.71,ML,1577420751
curup,-3.47,102.53,80.08,69,75,1.5,ID,1577420752
tuatapere,-46.13,167.69,55.0,61,78,17.0,NZ,1577420485
mar del plata,-46.43,-67.52,67.87,38,68,22.95,AR,1577420752
kaitangata,-46.28,169.85,55.99,68,100,15.01,NZ,1577420752
port hardy,50.7,-127.42,37.4,100,90,3.36,CA,1577420752
paita,-5.09,-81.11,74.21,70,93,10.65,PE,1577420752
khatanga,71.98,102.47,-25.76,94,88,4.0,RU,1577420752
bethel,60.79,-161.76,-13.0,75,1,5.82,US,1577420752
pevek,69.7,170.27,-14.76,98,100,7.16,RU,1577420752
port alfred,-33.59,26.89,64.99,56,100,11.01,ZA,1577420753
chokurdakh,70.62,147.9,-21.08,98,77,2.28,RU,1577420753
batemans bay,-35.71,150.18,90.0,72,0,5.01,AU,1577420753
santa rosa,-36.62,-64.29,67.39,67,89,8.79,AR,1577420753
saldanha,41.42,-6.55,38.95,89,98,4.5,PT,1577420601
sao jose da coroa grande,-8.9,-35.15,79.23,75,1,12.53,BR,1577420753
rio gallegos,-51.62,-69.22,60.8,41,100,32.21,AR,1577420658
caldas novas,-17.75,-48.62,69.42,89,100,2.86,BR,1577420753
elko,40.83,-115.76,21.99,79,1,3.36,US,1577420754
adrar,27.87,-0.29,50.0,39,100,6.93,DZ,1577420754
wukari,7.87,9.78,73.58,21,21,7.2,NG,1577420754
frontera,18.53,-92.64,66.2,82,0,3.44,MX,1577420754
kitaibaraki,36.84,140.74,51.01,100,75,14.99,JP,1577420754
dauriya,49.93,116.85,-12.23,95,32,2.95,RU,1577420754
shitanjing,39.23,106.34,28.27,29,0,3.44,CN,1577420754
tual,-5.67,132.75,85.06,76,67,12.08,ID,1577420754
muisne,0.61,-80.02,75.31,89,100,8.79,EC,1577420755
vanimo,-2.67,141.3,83.41,77,86,15.23,PG,1577420755
roald,62.58,6.12,35.01,64,100,11.41,NO,1577420755
verkhoyansk,67.55,133.39,-43.29,99,32,0.51,RU,1577420755
iracoubo,5.48,-53.21,78.49,89,100,17.07,GF,1577420755
vardo,39.62,-77.74,44.6,74,1,4.7,US,1577420549
la ronge,55.1,-105.3,14.0,92,5,3.36,CA,1577420467
holme,56.11,10.17,35.6,93,11,6.93,DK,1577420755
honningsvag,70.98,25.97,31.05,76,100,5.03,NO,1577420756
torbay,47.66,-52.73,35.01,92,90,31.09,CA,1577420756
mumbwa,-14.99,27.06,65.82,95,64,3.13,ZM,1577420756
biak,-0.91,122.88,83.35,72,0,6.76,ID,1577420628
maceio,-9.67,-35.74,75.2,88,75,5.82,BR,1577420756
piacabucu,-10.41,-36.43,77.29,79,8,8.52,BR,1577420756
vore,41.39,19.66,33.8,58,35,2.24,AL,1577420756
iqaluit,63.75,-68.52,3.2,77,90,19.46,CA,1577420756
vila franca do campo,37.72,-25.43,64.4,88,40,23.04,PT,1577420757
barrow,-38.31,-60.23,64.76,72,52,12.46,AR,1577420757
henties bay,-22.12,14.28,61.0,87,77,1.01,NA,1577420507
chastyye,57.29,54.97,18.0,87,98,6.98,RU,1577420757
montbeliard,47.52,6.8,46.4,100,75,12.75,FR,1577420757
bluff,-23.58,149.07,90.36,30,0,14.83,AU,1577420757
dutse,11.76,9.34,58.17,24,0,8.59,NG,1577420757
solnechnyy,50.72,136.64,-8.57,87,0,3.38,RU,1577420758
khandyga,62.65,135.58,-35.75,85,95,0.74,RU,1577420758
sulangan,11.14,123.72,82.0,73,66,2.82,PH,1577420758
lavrentiya,65.58,-170.99,-12.06,85,0,8.81,RU,1577420556
yulara,-25.24,130.99,107.6,6,57,5.82,AU,1577420758
pindiga,9.98,10.93,66.97,19,3,14.38,NG,1577420758
denpasar,-8.65,115.22,87.8,79,20,9.17,ID,1577420630
yellowknife,62.45,-114.38,12.99,92,40,12.75,CA,1577420484
bell ville,-32.63,-62.69,72.0,90,0,6.42,AR,1577420759
bure,10.52,10.33,60.62,25,10,6.64,NG,1577420759
mount gambier,-37.83,140.78,95.0,13,0,8.05,AU,1577420759
port elizabeth,39.31,-74.98,44.01,93,90,3.36,US,1577420759
severo-yeniseyskiy,60.37,93.04,-30.06,99,69,1.7,RU,1577420759
sitka,37.17,-99.65,41.31,46,0,7.23,US,1577420759
zhanaozen,43.35,52.85,34.36,90,1,7.78,KZ,1577420760
lompoc,34.64,-120.46,48.2,61,1,3.36,US,1577420760
muroto,33.37,134.14,53.6,50,40,17.22,JP,1577420760
kavieng,-2.57,150.8,80.46,80,98,6.6,PG,1577420760
wasilla,61.58,-149.44,12.99,85,90,7.61,US,1577420465
den helder,52.96,4.76,42.8,93,90,14.99,NL,1577420760
severo-kurilsk,50.68,156.12,26.13,95,100,8.21,RU,1577420760
butaritari,3.07,172.79,84.42,77,85,11.07,KI,1577420761
ribeira grande,38.52,-28.7,61.77,91,100,33.35,PT,1577420761
jamestown,-33.21,138.6,100.44,11,0,6.49,AU,1577420483
shymkent,42.31,69.59,37.4,55,5,8.95,KZ,1577420761
sinnamary,5.38,-52.96,78.49,89,100,17.07,GF,1577420761
homer,59.64,-151.54,23.0,67,1,3.36,US,1577420761
sampit,-2.54,112.95,89.96,53,23,3.53,ID,1577420761
saint george,39.45,22.34,44.01,80,20,4.7,GR,1577420761
freeport,26.54,-78.7,75.45,80,93,24.49,BS,1577420762
mbandaka,0.05,18.26,72.0,79,99,2.19,CD,1577420762
zhaotong,27.34,103.71,32.04,76,98,1.48,CN,1577420762
alofi,-19.06,-169.92,80.6,74,100,11.41,NU,1577420762
port-gentil,-0.72,8.78,81.27,78,97,6.29,GA,1577420762
iraquara,-12.24,-41.62,65.97,84,95,11.01,BR,1577420762
hilton head island,32.16,-80.75,64.4,93,90,11.61,US,1577420750
tasiilaq,65.61,-37.64,17.6,57,16,2.17,GL,1577420762
bredasdorp,-34.53,20.04,55.4,82,35,5.82,ZA,1577420763
luderitz,-26.65,15.16,64.4,63,84,14.99,NA,1577420513
kakanj,44.13,18.12,32.0,88,90,1.03,BA,1577420763
chuy,-33.69,-53.46,69.64,96,0,5.23,UY,1577420763
lafia,8.5,8.51,71.6,28,0,0.29,NG,1577420763
whitley bay,55.04,-1.44,45.0,93,75,4.7,GB,1577420763
valday,57.98,33.25,37.6,96,100,7.14,RU,1577420763
avarua,-21.21,-159.78,77.0,65,0,10.29,CK,1577420763
kodiak,39.95,-94.76,34.0,86,1,5.82,US,1577420764
gizo,31.8,34.94,53.6,76,75,19.46,IL,1577420764
beyneu,45.32,55.19,37.4,92,100,13.31,KZ,1577420764
yuanping,38.72,112.71,27.54,33,0,2.44,CN,1577420764
brufut,13.38,-16.75,64.4,77,0,2.24,GM,1577420764
dikson,73.51,80.55,-8.57,97,100,16.55,RU,1577420764
gilgit,35.92,74.31,0.75,14,0,0.81,PK,1577420764
lahan,26.71,86.48,56.84,47,0,6.46,NP,1577420764
qaanaaq,77.48,-69.36,-4.18,67,0,6.96,GL,1577420511
georgetown,6.8,-58.16,77.0,94,75,6.93,GY,1577420490
kunming,25.04,102.71,57.0,87,20,4.47,CN,1577420765
cabo san lucas,22.89,-109.91,66.99,77,40,4.7,MX,1577420491
tiksi,71.64,128.87,-30.1,100,65,0.98,RU,1577420765
laguna,16.17,-88.94,67.05,93,1,1.07,BZ,1577420765
jamame,0.07,42.75,80.02,81,0,16.87,SO,1577420765
bilibino,68.06,166.44,-29.6,100,4,1.14,RU,1577420765
hasaki,35.73,140.83,59.0,75,20,25.28,JP,1577420567
olavarria,-36.89,-60.32,68.0,83,56,4.0,AR,1577420766
pokhara,28.21,83.99,50.7,41,0,1.66,NP,1577420766
ballina,54.11,-9.15,54.0,94,100,11.99,IE,1577420632
mundo nuevo,-32.72,-71.41,59.0,77,0,9.17,CL,1577420766
shache,38.42,77.24,19.56,69,0,3.06,CN,1577420766
guerrero negro,27.97,-114.04,60.01,80,75,15.3,MX,1577420766
sao felix do xingu,-6.64,-51.99,73.09,96,59,0.89,BR,1577420766
port keats,-14.25,129.55,94.48,56,47,12.53,AU,1577420766
arraial do cabo,-22.97,-42.02,75.24,90,0,18.01,BR,1577420767
broome,52.47,1.45,46.99,87,92,9.17,GB,1577420767
meulaboh,4.14,96.13,80.82,76,61,4.36,ID,1577420767
longyearbyen,78.22,15.63,21.2,73,75,10.29,NO,1577420767
baiyin,36.55,104.13,24.8,41,0,4.47,CN,1577420767
pasni,25.26,63.48,59.52,51,0,3.49,PK,1577420767
kamaishi,39.28,141.86,33.8,95,75,18.34,JP,1577420767
saskylakh,71.97,114.09,-33.29,100,0,2.21,RU,1577420767
el real de santa maria,8.11,-77.73,73.22,99,60,0.89,PA,1577420768
coquimbo,-29.95,-71.34,57.2,93,34,3.36,CL,1577420768
karasjok,69.47,25.52,5.0,92,2,4.7,NO,1577420768
chandia,23.65,80.7,51.6,43,0,3.09,IN,1577420768
puerto cabezas,14.04,-83.39,71.33,95,0,4.36,NI,1577420768
port lincoln,-34.72,135.86,86.49,33,18,6.53,AU,1577420768
changping,40.22,116.23,33.8,40,0,2.24,CN,1577420769
mocorito,25.48,-107.92,60.01,85,0,1.99,MX,1577420769
narsaq,60.91,-46.05,39.2,27,100,13.87,GL,1577420769
shestakovo,56.49,103.96,-7.92,92,100,8.77,RU,1577420769
norman wells,65.28,-126.83,-16.6,75,75,16.11,CA,1577420769
altay,47.83,88.13,4.26,83,75,3.33,CN,1577420769
labuan,5.28,115.24,86.0,70,75,3.36,BN,1577420769
saravan,39.72,45.65,42.8,70,90,4.7,AM,1577420770
ntungamo,-0.87,30.27,58.73,95,52,1.74,UG,1577420770
road town,18.42,-64.62,78.8,74,90,4.7,VG,1577420626
benguela,-12.58,13.4,75.87,87,100,2.82,AO,1577420770
cubuk,40.24,33.03,39.2,74,75,8.05,TR,1577420770
ilulissat,69.22,-51.1,3.2,41,0,3.36,GL,1577420512
ashland,38.48,-82.64,57.0,93,90,3.36,US,1577420617
teguise,29.06,-13.56,66.2,55,0,5.82,ES,1577420771
rodrigues alves,-7.74,-72.65,74.1,92,100,2.19,BR,1577420771
adeje,5.68,5.76,74.23,96,3,1.66,NG,1577420771
atbasar,51.81,68.36,12.36,89,65,11.1,KZ,1577420771
constitucion,23.99,-104.67,51.01,55,0,4.0,MX,1577420771
northam,-31.65,116.67,84.2,28,89,9.17,AU,1577420771
itaporanga,-7.3,-38.15,74.55,66,83,8.05,BR,1577420771
lagoa,37.14,-8.45,62.6,51,98,10.29,PT,1577420771
sebastian,27.82,-80.47,73.99,83,20,9.17,US,1577420702
kollam,8.88,76.6,86.0,74,20,4.7,IN,1577420772
bambous virieux,-20.34,57.76,80.6,88,75,17.22,MU,1577420772
wajir,1.75,40.07,71.6,88,75,3.36,KE,1577420772
birnin kebbi,12.45,4.2,66.36,17,0,12.15,NG,1577420772
provideniya,64.42,-173.23,-7.6,63,0,8.95,RU,1577420772
souillac,45.6,-0.6,46.4,93,20,3.36,FR,1577420524
portland,43.66,-70.25,28.99,50,90,3.38,US,1577420773
cidreira,-30.17,-50.22,73.94,89,100,25.12,BR,1577420773
santiago de cao,-7.96,-79.24,69.8,83,97,6.93,PE,1577420773
coronado,8.53,-79.9,82.0,83,87,4.7,PA,1577420773
bandarbeyla,9.49,50.81,76.69,66,8,19.55,SO,1577420773
saint-philippe,45.36,-73.48,28.0,73,90,12.75,CA,1577420773
gigmoto,13.78,124.39,81.59,82,27,14.81,PH,1577420773
aklavik,68.22,-135.01,-18.4,68,90,5.82,CA,1577420774
athabasca,54.72,-113.29,14.38,69,0,9.71,CA,1577420774
austin,30.27,-97.74,63.0,82,90,5.82,US,1577420686
ocampo,27.32,-102.4,54.27,87,95,6.17,MX,1577420774
inta,66.04,60.13,13.1,96,100,2.44,RU,1577420774
east london,-33.02,27.91,60.8,72,40,11.41,ZA,1577420774
touros,-5.2,-35.46,77.0,78,20,5.82,BR,1577420774
davila,18.47,120.58,84.2,66,75,20.8,PH,1577420774
kyzyl-suu,42.34,78.0,23.77,56,17,8.9,KG,1577420775
hofn,64.25,-15.21,46.83,93,100,24.54,IS,1577420575
andradas,-22.07,-46.57,62.15,90,0,6.82,BR,1577420775
katsuura,33.93,134.5,53.6,50,75,19.46,JP,1577420775
xuddur,4.12,43.89,68.31,81,0,10.98,SO,1577420775
challans,46.85,-1.88,55.4,87,90,12.75,FR,1577420775
bulgan,48.81,103.53,6.67,77,77,4.56,MN,1577420775
sur,22.57,59.53,64.83,62,38,0.96,OM,1577420775
simplicio mendes,-7.85,-41.91,78.1,50,23,4.97,BR,1577420776
carlyle,49.63,-102.27,12.2,78,1,12.75,CA,1577420776
vaiano,43.97,11.13,42.01,93,52,2.24,IT,1577420776
hamilton,43.26,-79.87,41.0,100,75,2.24,CA,1577420636
lorengau,-2.02,147.27,83.62,77,100,14.05,PG,1577420776
bafoulabe,13.81,-10.83,68.16,11,0,3.83,ML,1577420776
kangalassy,62.35,129.97,-52.6,55,90,4.47,RU,1577420776
auki,12.18,6.51,63.5,19,0,13.8,NG,1577420648
ippy,6.26,21.2,66.72,29,19,4.63,CF,1577420777
pacific grove,36.62,-121.92,46.99,75,1,15.9,US,1577420777
gunnedah,-30.98,150.25,95.0,11,0,8.05,AU,1577420777
burnie,-41.05,145.91,70.0,59,30,10.0,AU,1577420777
krasnyy yar,50.7,44.73,20.86,81,85,4.61,RU,1577420777
znamenskoye,57.13,73.82,-15.41,96,5,5.41,RU,1577420777
college,64.86,-147.8,-16.6,75,1,2.53,US,1577420777
russell,38.9,-98.86,30.2,80,1,5.82,US,1577420777
grindavik,63.84,-22.43,44.6,100,90,23.04,IS,1577420778
pandan,11.72,122.09,81.48,71,77,5.03,PH,1577420778
baijiantan,45.63,85.18,13.87,86,100,2.13,CN,1577420778
barcelos,-0.97,-62.93,75.72,93,95,1.92,BR,1577420778
deputatskiy,69.3,139.9,-33.07,100,100,2.1,RU,1577420778
mandla,22.6,80.37,54.34,46,0,5.01,IN,1577420778
mulgund,15.28,75.52,75.2,78,20,5.82,IN,1577420778
san patricio,-26.98,-56.83,73.51,91,100,8.28,PY,1577420779
asind,25.73,74.33,49.91,31,0,1.83,IN,1577420779
penzance,50.12,-5.53,55.0,100,100,13.87,GB,1577420779
general roca,-39.03,-67.58,71.6,14,100,6.93,AR,1577420779
kampong cham,11.99,105.46,80.69,67,12,3.85,KH,1577420779
massillon,40.8,-81.52,57.2,82,90,13.87,US,1577420779
kushima,31.5,131.29,53.6,37,20,17.22,JP,1577420779
cabinda,-5.56,12.19,79.63,82,83,4.92,AO,1577420780
capaci,38.17,13.24,55.99,81,20,3.36,IT,1577420780
akdepe,42.05,59.39,39.2,64,100,11.41,TM,1577420780
arlit,18.74,7.39,61.61,23,50,11.01,NE,1577420780
labuhan,-2.54,115.51,89.51,55,5,3.06,ID,1577420780
fukue,35.03,136.69,54.0,57,40,39.15,JP,1577420513
tarn taran,31.46,74.93,44.6,87,0,2.1,IN,1577420780
mecca,21.43,39.83,62.64,51,0,3.8,SA,1577420780
brewster,41.76,-70.08,36.0,58,1,7.63,US,1577420780
vao,59.1,26.19,32.09,95,100,8.9,EE,1577420546
sao joao da barra,-21.64,-41.05,75.76,87,0,18.1,BR,1577420562
nanortalik,60.14,-45.24,32.22,46,100,1.25,GL,1577420542
coos bay,43.37,-124.22,39.99,100,75,6.93,US,1577420617
geraldton,49.72,-86.95,26.6,92,90,10.29,CA,1577420520
morondava,-20.3,44.28,79.2,80,0,3.94,MG,1577420781
isla vista,34.41,-119.86,48.99,61,1,3.36,US,1577420684
chapais,49.78,-74.86,10.4,85,90,13.87,CA,1577420781
nalut,31.86,10.98,50.72,44,76,2.19,LY,1577420782
ponta do sol,-20.63,-46.0,67.17,88,3,3.02,BR,1577420516
north myrtle beach,33.83,-78.68,62.6,87,75,4.7,US,1577420782
ostrovnoy,68.05,39.51,26.26,85,100,12.1,RU,1577420583
victoria,5.28,115.24,86.0,70,75,3.36,BN,1577420782
dingle,11.0,122.67,84.31,70,49,3.38,PH,1577420782
shirokiy,53.87,39.17,29.57,70,99,4.09,RU,1577420782
montepuez,-13.13,39.0,71.96,97,100,6.02,MZ,1577420782
viedma,-40.81,-62.99,69.46,56,100,17.29,AR,1577420783
belz,50.38,24.01,35.6,93,90,6.71,UA,1577420783
sisophon,13.59,102.97,81.95,53,0,7.31,KH,1577420783
sars,56.55,57.14,17.58,81,93,10.78,RU,1577420783
belomorsk,64.52,34.76,25.92,94,100,16.84,RU,1577420783
allende,28.34,-100.85,62.76,95,100,4.94,MX,1577420783
shellbrook,53.22,-106.39,3.2,84,20,3.36,CA,1577420783
tommot,58.97,126.27,-23.87,95,0,2.06,RU,1577420783
christchurch,-43.53,172.64,75.99,31,100,27.51,NZ,1577420784
mumford,5.26,-0.76,75.13,90,0,3.36,GH,1577420784
sesheke,-17.47,24.29,77.0,73,75,3.36,NA,1577420784
sorland,67.67,12.69,38.5,71,100,12.37,NO,1577420784
le havre,49.49,0.11,48.2,100,90,13.87,FR,1577420632
tres picos,16.23,-93.58,67.08,61,13,3.49,MX,1577420784
karratha,-20.74,116.85,93.9,56,77,6.8,AU,1577420785
hervey bay,-25.3,152.85,84.99,48,40,23.04,AU,1577420785
cherskiy,68.75,161.3,-31.9,90,0,5.5,RU,1577420785
lamu,35.77,102.37,18.27,19,0,5.84,CN,1577420785
pangnirtung,66.15,-65.72,-4.0,69,0,0.63,CA,1577420785
firovo,57.48,33.7,37.24,98,100,4.34,RU,1577420785
gualeguay,-33.15,-59.31,72.82,94,0,7.18,AR,1577420785
upernavik,72.79,-56.15,2.7,72,2,8.66,GL,1577420785
tornio,61.12,27.27,28.4,92,90,8.05,FI,1577420786
amahai,-3.31,129.0,83.95,71,62,6.2,ID,1577420786
zyryanka,65.73,150.89,-32.12,84,36,7.34,RU,1577420786
izazi,-7.24,35.72,66.2,93,40,1.3,TZ,1577420786
abu dhabi,24.47,54.37,62.6,82,1,2.24,AE,1577420667
caravelas,-17.73,-39.27,72.82,93,100,3.69,BR,1577420574
milyutinskaya,48.63,41.67,32.38,77,83,4.34,RU,1577420786
batagay-alyta,67.8,130.41,-33.72,99,0,4.59,RU,1577420786
sergeyevka,53.88,67.42,6.3,83,88,12.73,KZ,1577420787
peleduy,59.63,112.75,-6.23,98,100,3.11,RU,1577420787
bilma,18.69,12.92,55.02,32,0,7.58,NE,1577420787
lebu,8.96,38.73,53.6,76,75,4.7,ET,1577420787
srednekolymsk,67.46,153.71,-33.32,92,0,2.64,RU,1577420787
hammerfest,70.66,23.68,26.6,73,100,11.41,NO,1577420784
mus,43.74,4.2,50.0,61,4,2.24,FR,1577420787
rawson,-43.3,-65.11,62.71,73,69,4.14,AR,1577420787
port hawkesbury,45.62,-61.36,28.99,86,90,16.11,CA,1577420788
tuktoyaktuk,69.44,-133.03,-18.4,75,90,14.99,CA,1577420788
longjiang,47.33,123.18,-5.03,86,3,3.47,CN,1577420788
inzer,54.22,57.56,15.28,88,100,6.91,RU,1577420788
mahon,51.89,-8.4,53.01,93,75,14.99,IE,1577420788
batsfjord,70.63,29.72,16.23,97,100,2.95,NO,1577420788
marsabit,2.34,37.99,76.1,54,0,9.53,KE,1577420788
trairi,-3.28,-39.27,76.17,81,32,6.33,BR,1577420788
zachary,30.65,-91.16,66.2,93,90,8.05,US,1577420789
kantabanji,20.47,82.92,67.03,88,82,2.62,IN,1577420789
jieshi,22.82,115.83,64.99,53,14,10.27,CN,1577420583
plymouth,50.37,-4.14,55.0,100,100,13.87,GB,1577420789
koani,-6.13,39.28,80.6,88,40,16.69,TZ,1577420789
river falls,44.86,-92.63,28.0,86,90,9.17,US,1577420790
bow island,49.87,-111.38,23.0,67,1,14.99,CA,1577420790
ahipara,-35.17,173.16,75.99,77,0,17.45,NZ,1577420790
marsaxlokk,35.84,14.54,54.0,100,20,1.12,MT,1577420790
abeche,13.83,20.83,60.94,20,23,20.15,TD,1577420790
sibenik,45.81,17.18,39.11,87,100,1.52,HR,1577420790
chicama,-7.84,-79.15,69.8,83,97,6.93,PE,1577420790
sola,-3.17,33.8,62.4,90,94,3.44,TZ,1577420790
ust-maya,60.42,134.54,-34.13,94,4,2.71,RU,1577420791
hovd,63.83,10.7,34.0,92,75,9.17,NO,1577420791
honiara,-9.43,159.96,87.8,66,40,9.17,SB,1577420661
mantua,45.16,10.79,41.0,85,74,5.82,IT,1577420791
turayf,31.68,38.65,44.6,100,75,9.17,SA,1577420791
chabahar,25.29,60.65,57.2,67,0,5.08,IR,1577420791
danielskuil,-28.19,23.54,62.55,17,97,5.39,ZA,1577420791
jacareacanga,-6.22,-57.76,74.21,93,0,1.88,BR,1577420792
gimli,50.63,-96.99,21.0,94,0,5.99,CA,1577420792
kungurtug,50.6,97.53,3.87,86,100,2.55,RU,1577420792
ayan,38.23,44.7,25.81,96,99,0.22,IR,1577420792
rocha,-34.48,-54.34,66.15,98,24,6.53,UY,1577420792
sabha,27.03,14.43,52.0,36,0,6.53,LY,1577420792
bam,29.11,58.36,51.01,33,0,0.78,IR,1577420792
atasu,48.68,71.64,22.19,74,99,9.31,KZ,1577420571
vila velha,-3.71,-38.6,86.0,74,75,12.75,BR,1577420594
chanika,-12.93,34.19,67.93,89,100,0.83,MW,1577420793
faanui,-16.48,-151.75,79.66,82,100,26.17,PF,1577420628
samarai,-10.62,150.67,83.86,70,40,7.92,PG,1577420793
fairbanks,64.84,-147.72,-16.01,75,1,1.63,US,1577420793
tromso,69.65,18.96,26.6,68,100,12.75,NO,1577420793
oudtshoorn,-33.59,22.2,57.2,67,75,12.75,ZA,1577420793
gboko,7.32,9.0,74.21,25,1,8.1,NG,1577420793
terrace,54.52,-128.61,35.01,98,90,5.82,CA,1577420794
birjand,32.86,59.22,37.4,29,0,6.93,IR,1577420639
kruisfontein,-34.0,24.73,53.64,62,0,14.58,ZA,1577420794
svobodnyy,53.85,40.53,26.92,64,100,2.89,RU,1577420794
soyo,-6.13,12.37,76.71,90,70,2.15,AO,1577420612
faya,18.39,42.45,50.0,93,5,2.95,SA,1577420794
aripuana,-9.17,-60.63,74.07,94,11,1.92,BR,1577420794
westport,41.14,-73.36,46.99,75,90,9.17,US,1577420794
livingston,32.58,-88.19,62.6,100,1,5.14,US,1577420795
valdivia,-39.81,-73.25,44.6,100,100,3.11,CL,1577420644
port moresby,-9.47,147.16,96.8,50,40,17.22,PG,1577420795
tha muang,13.98,99.64,82.96,54,1,3.69,TH,1577420795
haapiti,-17.57,-149.87,75.2,94,90,4.7,PF,1577420795
hun,50.34,4.87,46.0,93,75,2.24,BE,1577420795
sept-iles,50.2,-66.38,-5.8,76,5,2.24,CA,1577420625
berlevag,70.86,29.09,31.96,66,98,7.07,NO,1577420796
haileybury,47.44,-79.64,28.4,100,90,13.87,CA,1577420796
shelburne,44.08,-80.2,37.4,100,90,4.7,CA,1577420502
poum,41.28,20.71,30.2,80,32,3.36,MK,1577420796
verkhoshizhemye,58.01,49.1,14.56,90,91,3.29,RU,1577420796
marsa matruh,31.35,27.25,51.8,71,40,10.29,EG,1577420796
maumere,-8.63,122.22,84.7,68,95,6.69,ID,1577420796
cockburn town,21.46,-71.14,78.04,68,99,15.39,TC,1577420796
esperance,-33.86,121.89,75.2,50,78,14.99,AU,1577420797
ouadda,8.07,22.4,63.19,23,15,5.06,CF,1577420797
saint-joseph,43.56,6.97,50.0,87,90,5.82,FR,1577420797
battle creek,42.32,-85.18,57.2,87,90,10.29,US,1577420797
hope,33.67,-93.59,57.2,87,1,3.36,US,1577420797
udachnyy,66.42,112.4,-34.6,73,0,2.24,RU,1577420797
salamiyah,35.01,37.05,47.73,87,100,9.26,SY,1577420797
comodoro rivadavia,-45.87,-67.48,69.8,37,35,16.11,AR,1577420574
staryy oskol,51.3,37.84,32.63,87,100,3.98,RU,1577420798
pangkalanbuun,-2.68,111.62,91.54,51,0,3.02,ID,1577420798
mareeba,-16.99,145.42,86.0,58,75,8.05,AU,1577420798
concordia,-31.4,-58.02,72.0,90,43,4.0,AR,1577420798
makakilo city,21.35,-158.09,80.6,61,40,10.29,US,1577420798
dali,34.79,109.94,42.6,18,0,7.11,CN,1577420798
sfantu gheorghe,44.65,26.83,39.0,80,63,6.93,RO,1577420799
katherine,-14.47,132.26,100.4,24,100,6.93,AU,1577420799
araouane,18.9,-3.53,63.46,17,0,6.33,ML,1577420799
belen,34.66,-106.78,43.0,69,1,4.7,US,1577420799
klaksvik,62.23,-6.59,44.6,87,100,24.16,FO,1577420799
jaciara,-15.95,-54.98,72.27,91,14,1.54,BR,1577420799
umm kaddadah,13.6,26.69,55.92,23,0,11.21,SD,1577420799
haines junction,60.75,-137.51,8.37,96,100,4.18,CA,1577420799
rovaniemi,66.5,25.72,14.0,85,0,9.17,FI,1577420800
vostok,46.45,135.83,-3.53,87,42,3.13,RU,1577420800
taicheng,22.25,112.8,69.01,61,0,3.0,CN,1577420800
manzhouli,49.6,117.43,-11.65,92,26,0.74,CN,1577420800
isangel,-19.55,169.27,82.4,78,100,16.11,VU,1577420560
grand-lahou,5.24,-5.0,82.04,75,0,7.0,CI,1577420800
ramsar,36.92,50.64,55.4,58,40,2.24,IR,1577420800
la palma,5.36,-74.39,70.52,97,100,2.68,CO,1577420801
rognan,67.1,15.4,30.2,68,75,21.92,NO,1577420801
tala,20.65,-103.7,64.99,54,40,2.42,MX,1577420801
kudahuvadhoo,2.67,72.89,82.45,78,67,15.1,MV,1577420801
lanzhou,36.06,103.82,24.8,41,0,4.47,CN,1577420801
zabaykalsk,49.64,117.33,-11.65,92,26,0.74,CN,1577420801
montpelier,44.26,-72.58,39.99,88,75,10.29,US,1577420539
bukama,-9.2,25.85,70.0,98,100,2.15,CD,1577420801
ambulu,-8.35,113.61,81.99,76,0,4.76,ID,1577420802
sundarnagar,31.53,76.88,39.79,17,0,6.24,IN,1577420802
faisalabad,31.42,73.09,50.11,27,0,0.69,PK,1577420690
tyup,42.73,78.36,19.22,38,17,3.11,KG,1577420802
vilyuysk,63.75,121.63,-35.12,94,99,5.84,RU,1577420802
quatre cocos,-20.21,57.76,80.6,88,75,17.22,MU,1577420802
bowen,-20.01,148.25,80.6,78,75,14.99,AU,1577420803
kamenka,48.03,28.7,34.0,90,100,14.38,MD,1577420803
saint anthony,43.97,-111.68,12.99,78,1,3.36,US,1577420803
hambantota,6.12,81.12,78.8,88,0,5.82,LK,1577420803
batticaloa,7.71,81.69,77.0,76,10,4.14,LK,1577420803
algiers,29.94,-90.04,66.0,93,90,5.82,US,1577420803
saint-pierre,48.95,4.24,50.0,100,100,8.05,FR,1577420804
clyde river,70.47,-68.59,-5.8,91,1,5.82,CA,1577420804
oistins,13.07,-59.53,78.8,78,20,13.87,BB,1577420804
leshukonskoye,64.9,45.76,12.52,94,100,7.25,RU,1577420804
inhambane,-23.87,35.38,82.4,88,40,9.17,MZ,1577420804
pampa,35.54,-100.96,39.2,69,1,10.29,US,1577420805
kulhudhuffushi,6.62,73.07,81.57,80,0,14.07,MV,1577420805
lodeynoye pole,60.73,33.55,30.87,90,100,6.49,RU,1577420805
kharan,28.58,65.42,48.72,30,0,3.94,PK,1577420805
wagar,31.44,-87.99,61.0,79,82,4.47,US,1577420805
palora,-1.7,-77.97,67.01,98,100,1.92,EC,1577420805
senanga,-16.1,23.3,69.42,87,99,3.83,ZM,1577420806
ambon,47.55,-2.56,54.0,93,90,8.05,FR,1577420806
port hedland,-20.31,118.58,104.0,48,15,12.75,AU,1577420806
phan thiet,10.93,108.1,81.43,58,3,4.07,VN,1577420520
umm lajj,25.02,37.27,57.15,63,0,8.43,SA,1577420806
bongandanga,1.51,21.07,73.02,74,34,0.89,CD,1577420806
harper,30.3,-99.24,62.6,82,90,9.17,US,1577420806
roma,41.89,12.48,48.2,93,40,3.36,IT,1577420727
tabou,4.42,-7.36,75.79,88,0,2.04,CI,1577420807
san cristobal,14.68,-86.92,62.11,85,0,1.54,HN,1577420807
jalu,29.03,21.55,52.29,88,0,5.88,LY,1577420807
salalah,17.01,54.1,73.4,56,50,18.34,OM,1577420551
caldwell,43.67,-116.69,34.0,77,90,5.82,US,1577420807
hobyo,5.35,48.53,73.27,79,0,10.85,SO,1577420807
sao filipe,14.9,-24.5,73.58,65,0,8.59,CV,1577420807
kuloy,61.03,42.49,32.07,97,100,2.3,RU,1577420808
san juan,-31.54,-68.53,83.07,26,0,7.76,AR,1577420808
manta,45.1,24.1,33.15,68,48,3.85,RO,1577420808
vila,45.18,8.4,37.99,70,48,2.24,IT,1577420808
half moon bay,37.46,-122.43,50.0,93,1,10.13,US,1577420808
riyadh,24.63,46.72,50.0,66,0,3.36,SA,1577420783
kalmunai,7.42,81.82,80.15,71,45,11.43,LK,1577420808
moron,18.56,-74.26,76.8,81,6,14.16,HT,1577420808
champerico,16.38,-93.6,69.8,68,5,12.75,MX,1577420809
manicore,-5.81,-61.3,74.68,96,68,1.79,BR,1577420809
ebolowa,2.92,11.15,71.71,90,100,1.79,CM,1577420809
saint-francois,46.42,3.91,48.2,81,75,10.29,FR,1577420809
gladstone,-23.84,151.26,86.0,48,0,23.04,AU,1577420809
lerwick,60.15,-1.15,44.6,81,72,20.8,GB,1577420809
toyooka,35.55,134.82,48.2,70,75,13.87,JP,1577420809
florianopolis,-27.6,-48.55,77.0,88,40,11.41,BR,1577420810
blagoveshchenka,52.83,79.87,-9.67,94,0,10.11,RU,1577420810
codrington,-28.95,153.24,84.2,45,75,12.75,AU,1577420810
kenai,60.55,-151.26,10.0,91,1,13.27,US,1577420810
hay river,60.82,-115.79,12.2,85,40,5.82,CA,1577420810
bonavista,48.65,-53.11,34.0,86,100,11.99,CA,1577420810
wilmington,39.75,-75.55,44.01,81,90,4.79,US,1577420688
mtwara,-10.28,40.18,78.8,94,75,11.41,TZ,1577420810
leningradskiy,69.38,178.42,-8.3,93,100,15.17,RU,1577420811
bishop auckland,54.66,-1.68,44.01,100,88,3.36,GB,1577420811
vyazemskiy,47.53,134.76,-4.72,76,47,2.77,RU,1577420811
gallup,35.53,-108.74,35.6,93,1,11.41,US,1577420811
narrabri,-30.33,149.78,95.0,13,0,13.87,AU,1577420811
jumla,29.28,82.18,25.18,18,0,6.55,NP,1577420578
sioux lookout,50.1,-91.92,26.6,92,90,14.99,CA,1577420606
el ocotito,18.27,-100.1,64.56,64,14,3.24,MX,1577420812
marawi,8.0,124.29,78.01,88,0,4.0,PH,1577420812
bandundu,-3.32,17.38,73.62,91,99,3.76,CD,1577420812
bereda,43.27,-7.54,34.0,100,90,8.05,ES,1577420812
turukhansk,65.8,87.96,-25.73,99,83,0.96,RU,1577420812
magomeni,-6.8,39.25,80.6,88,75,12.55,TZ,1577420812
pervomaysk,54.87,43.81,16.86,88,100,3.06,RU,1577420813
pteleos,39.05,22.95,36.0,80,20,4.7,GR,1577420813
hailey,43.52,-114.32,10.4,92,5,9.17,US,1577420813
trelew,-43.25,-65.31,62.55,47,33,3.22,AR,1577420649
trincomalee,8.58,81.23,78.01,69,3,2.42,LK,1577420813
omboue,-1.57,9.26,74.16,96,60,2.08,GA,1577420813
sandur,36.91,43.06,43.25,89,100,9.8,IQ,1577420813
ixtapa,20.71,-105.21,75.2,78,5,4.7,MX,1577420814
matucana,-11.84,-76.39,55.62,89,100,3.44,PE,1577420814
whitehorse,60.72,-135.06,28.4,86,90,5.82,CA,1577420814
taiyuan,37.86,112.56,37.4,27,0,4.47,CN,1577420814
fortuna,40.6,-124.16,44.6,93,1,3.36,US,1577420545
komsomolskiy,67.55,63.78,-6.81,89,94,1.39,RU,1577420814
harpanahalli,14.8,75.98,75.69,62,96,8.3,IN,1577420814
kyaikkami,16.08,97.57,75.81,64,0,6.42,MM,1577420815
inyonga,-6.72,32.06,65.62,98,100,4.09,TZ,1577420815
xiazhen,23.89,120.95,66.2,55,40,21.92,TW,1577420815
luwuk,-0.95,122.79,83.35,72,0,6.76,ID,1577420815
bubaque,11.28,-15.83,79.29,58,0,11.16,GW,1577420815
beaufort,5.36,115.76,84.2,70,75,3.36,MY,1577420815
vestmannaeyjar,63.44,-20.27,46.99,90,100,33.67,IS,1577420816
fujin,47.24,132.03,-6.25,89,4,3.78,CN,1577420816
nyurba,63.29,118.35,-40.09,96,57,3.96,RU,1577420816
katobu,-4.94,122.53,85.96,72,100,3.09,ID,1577420816
gresham,45.51,-122.44,39.0,86,75,8.05,US,1577420665
seymchan,62.93,152.39,-26.1,88,100,1.45,RU,1577420816
uray,60.13,64.8,-5.35,93,71,7.45,RU,1577420817
cabedelo,-6.97,-34.84,75.2,88,20,6.93,BR,1577420817
brezno,48.81,19.64,32.0,98,40,1.12,SK,1577420817
avera,33.19,-82.53,55.4,93,90,4.99,US,1577420653
zhigalovo,54.81,105.15,-5.08,94,100,3.69,RU,1577420817
thinadhoo,0.53,72.93,81.95,81,65,12.15,MV,1577420662
flinders,-34.58,150.85,90.0,37,0,16.11,AU,1577420817
simav,39.09,28.98,33.8,80,40,5.82,TR,1577420817
itarema,-2.92,-39.92,78.75,81,0,7.65,BR,1577420818
mindelo,41.31,-8.72,50.0,71,73,9.17,PT,1577420818
praia da vitoria,38.73,-27.07,65.12,81,100,35.66,PT,1577420818
nemuro,43.32,145.57,26.6,86,75,9.17,JP,1577420818
semnan,35.58,53.39,38.62,59,0,1.57,IR,1577420818
porbandar,21.64,69.61,68.0,40,40,9.17,IN,1577420542
bonthe,7.53,-12.5,79.41,78,0,4.43,SL,1577420818
tagab,34.85,69.65,33.8,73,1,1.77,AF,1577420818
krutinka,56.01,71.51,-10.64,96,0,9.64,RU,1577420819
blantyre,-15.79,35.0,69.46,83,86,5.06,MW,1577420819
talnakh,69.49,88.39,-27.4,74,89,4.47,RU,1577420819
siderno,38.28,16.3,51.01,93,40,1.12,IT,1577420819
terrace bay,48.78,-87.1,34.34,99,100,7.56,CA,1577420819
ulaangom,49.98,92.07,-5.42,88,86,2.04,MN,1577420819
murray bridge,-35.12,139.28,105.01,15,0,5.01,AU,1577420820
husavik,50.56,-96.99,21.0,94,0,5.99,CA,1577420820
vega de alatorre,20.03,-96.65,73.45,72,100,9.08,MX,1577420820
veraval,49.65,0.71,48.2,100,90,12.75,FR,1577420820
tigil,57.8,158.67,26.42,70,100,21.5,RU,1577420820
dengzhou,32.69,112.08,46.51,24,0,4.61,CN,1577420820
pachino,36.72,15.09,48.0,93,33,3.36,IT,1577420820
yazman,36.74,38.46,45.82,92,100,9.98,SY,1577420820
smithers,54.78,-127.17,26.6,79,90,8.05,CA,1577420821
taoudenni,22.68,-3.98,61.99,17,0,7.56,ML,1577420821
anadyr,64.73,177.51,-27.0,74,20,6.71,RU,1577420821
carutapera,-1.2,-46.02,82.83,79,0,15.19,BR,1577420821
cayenne,4.94,-52.33,77.0,94,40,6.51,GF,1577420615
kabare,-1.65,29.38,50.05,92,93,1.32,RW,1577420821
dotnuva,55.37,23.89,33.8,80,90,4.7,LT,1577420821
maragogi,-9.01,-35.22,79.23,75,1,12.53,BR,1577420821
tezu,27.93,96.16,61.57,47,0,2.84,IN,1577420822
tabuk,17.41,121.44,79.32,85,99,14.16,PH,1577420822
shajapur,23.42,76.29,51.73,36,0,7.27,IN,1577420822
camacha,33.08,-16.33,64.4,88,20,11.41,PT,1577420822
kysyl-syr,63.9,122.77,-33.97,96,100,5.01,RU,1577420822
prince rupert,54.32,-130.32,42.8,81,90,6.93,CA,1577420646
hirara,24.8,125.28,68.0,68,75,17.22,JP,1577420822
samfya,-11.37,29.56,66.74,96,100,3.47,ZM,1577420823
yantal,56.85,105.25,-6.34,97,100,1.36,RU,1577420823
iquique,-20.22,-70.14,71.6,68,40,5.82,CL,1577420823
tiznit,29.7,-9.73,58.55,29,100,3.11,MA,1577420823
kloulklubed,7.04,134.26,86.0,58,75,10.29,PW,1577420823
astana,51.13,71.43,-0.4,84,2,8.95,KZ,1577420737
joensuu,62.6,29.76,23.0,92,90,8.05,FI,1577420823
poli,8.48,13.24,68.14,21,0,3.65,CM,1577420823
